{"type": "FeatureCollection", "features": [{"geometry": {"type": "Point", "coordinates": [51.5516, -0.062]}, "type": "Feature", "id": null, "properties": {"people": "Harold Pinter, Steven Berkoff", "title": "Hackney Downs School"}}, {"geometry": {"type": "Point", "coordinates": [51.5451, -0.0564]}, "type": "Feature", "id": null, "properties": {"people": "John Boyega", "title": "Metropolitan Borough of Hackney"}}, {"geometry": {"type": "Point", "coordinates": [51.543307, -0.059486]}, "type": "Feature", "id": null, "properties": {"people": "Justin Fashanu", "title": "Hackney Central"}}, {"geometry": {"type": "Point", "coordinates": [51.5544, -0.0556]}, "type": "Feature", "id": null, "properties": {"people": "Lisa Moorish, Pete Doherty, Frank Turner, Emmy the Great, Joe Strummer", "title": "Strummerville"}}, {"geometry": {"type": "Point", "coordinates": [51.545, -0.07]}, "type": "Feature", "id": null, "properties": {"people": "Elliot Cowan, Cibelle, Christine Tobin, Beth Orton, Paloma Faith", "title": "Dalston"}}, {"geometry": {"type": "Point", "coordinates": [51.541104, -0.059545]}, "type": "Feature", "id": null, "properties": {"people": "Rafe Spall", "title": "London Fields"}}, {"geometry": {"type": "Point", "coordinates": [51.55212, -0.04704]}, "type": "Feature", "id": null, "properties": {"people": "Ray Winstone", "title": "Homerton"}}, {"geometry": {"type": "Point", "coordinates": [51.55212, -0.04704]}, "type": "Feature", "id": null, "properties": {"people": "Eileen Atkins, Fenella Fielding", "title": "Lower Clapton"}}, {"geometry": {"type": "Point", "coordinates": [51.544333333333, -0.073138888888889]}, "type": "Feature", "id": null, "properties": {"people": "Joseph Grimaldi", "title": "Holy Trinity Church, Dalston"}}, {"geometry": {"type": "Point", "coordinates": [51.549, -0.076]}, "type": "Feature", "id": null, "properties": {"people": "Christine Tobin, Ellen Andrea Wang", "title": "Vortex Jazz Club"}}, {"geometry": {"type": "Point", "coordinates": [51.5355, -0.0611]}, "type": "Feature", "id": null, "properties": {"people": "Tamsyn Challenger", "title": "Transition Gallery"}}, {"geometry": {"type": "Point", "coordinates": [51.54791, -0.03701]}, "type": "Feature", "id": null, "properties": {"people": "Lily Loveless", "title": "Cardinal Pole RC School"}}, {"geometry": {"type": "Point", "coordinates": [51.5615, -0.0731]}, "type": "Feature", "id": null, "properties": {"people": "Adam Deacon, Darien Angadi, Warren Mitchell, Rupert Graves, Malcolm McLaren, Rebecca Front, Tom Walls, Tom Chaplin", "title": "Stoke Newington"}}, {"geometry": {"type": "Point", "coordinates": [51.5657, -0.0686]}, "type": "Feature", "id": null, "properties": {"people": "Melvyn J Taub", "title": "Simon Marks Jewish Primary School"}}, {"geometry": {"type": "Point", "coordinates": [51.53245, -0.07195]}, "type": "Feature", "id": null, "properties": {"people": "Patsy Palmer", "title": "Haggerston School"}}, {"geometry": {"type": "Point", "coordinates": [51.537, -0.038]}, "type": "Feature", "id": null, "properties": {"people": "Sanchez Watt", "title": "Victoria Park, London"}}, {"geometry": {"type": "Point", "coordinates": [51.537, -0.038]}, "type": "Feature", "id": null, "properties": {"people": "Frankmusik, Grace Jones", "title": "Lovebox Festival"}}, {"geometry": {"type": "Point", "coordinates": [51.5312, -0.0511]}, "type": "Feature", "id": null, "properties": {"people": "Tony Rivers, Shapla Salique, Leonard Fenton, Steven Berkoff", "title": "Raine's Foundation School"}}, {"geometry": {"type": "Point", "coordinates": [51.549, -0.091]}, "type": "Feature", "id": null, "properties": {"people": "Larry Wallis", "title": "Pathway Studios"}}, {"geometry": {"type": "Point", "coordinates": [51.5649, -0.0781]}, "type": "Feature", "id": null, "properties": {"people": "Nelly Power", "title": "Abney Park Cemetery"}}, {"geometry": {"type": "Point", "coordinates": [51.5375, -0.086944444444444]}, "type": "Feature", "id": null, "properties": {"people": "Justin Pickett", "title": "Rosemary Branch Theatre"}}, {"geometry": {"type": "Point", "coordinates": [51.533333333333, -0.083333333333333]}, "type": "Feature", "id": null, "properties": {"people": "Gabrielle (singer), Christopher Biggins, James Alexandrou, Pauline Quirke, Shaka Hislop, Anthony Newley, Abz Love, Martine McCutcheon, Kacey Barnfield, Marc Bolan, Phil Davis (actor), Leo Genn, Joseph Grimaldi, Paul Whitehouse, Jessica Tandy, Sid Vicious, Ray Winstone", "title": "London Borough of Hackney"}}, {"geometry": {"type": "Point", "coordinates": [51.534, -0.085]}, "type": "Feature", "id": null, "properties": {"people": "John Baldwin Buckstone, Chris O'Dowd, Marie Lloyd, David Ffrangcon-Davies, Lupino Lane, Saul Williams", "title": "Hoxton"}}, {"geometry": {"type": "Point", "coordinates": [51.5391, -0.091]}, "type": "Feature", "id": null, "properties": {"people": "Gary Kemp", "title": "Rotherfield Primary School"}}, {"geometry": {"type": "Point", "coordinates": [51.5702, -0.0583]}, "type": "Feature", "id": null, "properties": {"people": "Paul Kaye", "title": "Upper Clapton"}}, {"geometry": {"type": "Point", "coordinates": [51.5275, -0.066]}, "type": "Feature", "id": null, "properties": {"people": "Helen Shapiro, Patsy Palmer, Michael McKell, Marie Lloyd, Alfie Bass, Eddie Marsan, Claudia Fontaine", "title": "Bethnal Green"}}, {"geometry": {"type": "Point", "coordinates": [51.534794, -0.087354]}, "type": "Feature", "id": null, "properties": {"people": "Kate Nash, Karine Polwart", "title": "Occupy London"}}, {"geometry": {"type": "Point", "coordinates": [51.5272, -0.0556]}, "type": "Feature", "id": null, "properties": {"people": "Liz Smith (actress), Gwyneth Strong", "title": "Bethnal Green tube station"}}, {"geometry": {"type": "Point", "coordinates": [51.5357, -0.0886]}, "type": "Feature", "id": null, "properties": {"people": "George Arliss, Jack London (athlete), Reginald Purdell, Patricia Roc, Jean Kent, Arthur Askey, James Mason, Val Guest, Dulcie Gray, Vera Frances, Elizabeth Allan, Glennis Lorimer", "title": "Gainsborough Pictures"}}, {"geometry": {"type": "Point", "coordinates": [51.53, -0.0789]}, "type": "Feature", "id": null, "properties": {"people": "Sid Vicious", "title": "Hackney College"}}]}
